{
  "countries": {
    "TR": {
      "employee": 858,
      "enduser_machine": 632,
      "network_devices": 250,
      "ap": 75,
      "router": 22,
      "switch": 84,
      "firewall": 3,
      "uds": 1,
      "location": 21,
      "locationCoordinates": [
        {"name": "Adana", "code": "ADAT8", "lat": 37.01432, "lng": 35.24995, "type": "Station", "company": "FedEx", "city": "Adana"},
        {"name": "Afyon", "code": "ADBA", "lat": 38.75728, "lng": 30.55183, "type": "Station", "company": "FedEx", "city": "Afyon"},
        {"name": "Balikesir", "code": "AJIA", "lat": 39.65289, "lng": 27.89514, "type": "Station", "company": "FedEx", "city": "Balıkesir"},
        {"name": "Ankara", "code": "ANKT8", "lat": 39.95322, "lng": 32.69897, "type": "Station", "company": "FedEx", "city": "Ankara"},
        {"name": "Eskisehir", "code": "AOEA", "lat": 39.77733, "lng": 30.52992, "type": "Station", "company": "FedEx", "city": "Eskişehir"},
        {"name": "Hadimkoy", "code": "AOET8", "lat": 41.07867, "lng": 28.63403, "type": "Station", "company": "FedEx", "city": "Istanbul"},
        {"name": "Kayseri", "code": "ASRT8", "lat": 38.74203, "lng": 35.41792, "type": "Station", "company": "FedEx", "city": "Kayseri"},
        {"name": "Antalya", "code": "AYTT8", "lat": 36.93169, "lng": 30.73287, "type": "Station", "company": "FedEx", "city": "Antalya"},
        {"name": "Serifali", "code": "BDMA", "lat": 41.00156, "lng": 29.14808, "type": "Station", "company": "FedEx", "city": "Istanbul"},
        {"name": "Bursa", "code": "BTZT8", "lat": 40.28389, "lng": 29.05456, "type": "Station", "company": "FedEx", "city": "Bursa"},
        {"name": "Denizli", "code": "DNZT8", "lat": 37.80997, "lng": 29.16611, "type": "Station", "company": "FedEx", "city": "Denizli"},
        {"name": "Malatya", "code": "EDOA", "lat": 38.35072, "lng": 38.30347, "type": "Station", "company": "FedEx", "city": "Malatya"},
        {"name": "Gaziantep", "code": "GZTT8", "lat": 37.08083, "lng": 37.35744, "type": "Station", "company": "FedEx", "city": "Gaziantep"},
        {"name": "Istanbul HQ", "code": "ISTHQ", "lat": 41.02961, "lng": 29.11415, "type": "HQ Office", "company": "FedEx", "city": "Istanbul"},
        {"name": "Istanbul Airport HUB", "code": "ISTRT", "lat": 41.28332415591068, "lng": 28.71915491740042, "type": "Ramp", "company": "FedEx", "city": "Istanbul"},
        {"name": "Gunesli", "code": "ISTT8", "lat": 41.02294, "lng": 28.82042, "type": "Station", "company": "FedEx", "city": "Istanbul"},
        {"name": "Izmir", "code": "IZMT8", "lat": 38.29544, "lng": 27.13989, "type": "Station", "company": "FedEx", "city": "Izmir"},
        {"name": "Konya", "code": "KYAT8", "lat": 37.9167142, "lng": 32.5063831, "type": "Station", "company": "FedEx", "city": "Konya"},
        {"name": "Mersin", "code": "QINT8", "lat": 36.80222, "lng": 34.63269, "type": "Station", "company": "FedEx", "city": "Mersin"},
        {"name": "Sabiha Gokcen Ramp", "code": "SAWT8", "lat": 40.90219, "lng": 29.30244, "type": "Ramp", "company": "FedEx", "city": "Istanbul"},
        {"name": "Catalca", "code": "TEQH", "lat": 41.07958, "lng": 28.50689, "type": "Clearance Center", "company": "FedEx", "city": "Istanbul"}
      ]
    },
    "GR": {
      "employee": 260,
      "enduser_machine": 232,
      "network_devices": 69,
      "ap": 29,
      "router": 3,
      "switch": 23,
      "firewall": null,
      "uds": null,
      "location": 9,
      "locationCoordinates": [
        {"name": "Athens Ramp", "code": "ATHRT", "lat": 37.9250, "lng": 23.9360, "type": "Ramp", "company": "FedEx", "city": "Athens"},
        {"name": "Athens", "code": "ATHT8", "lat": 37.8737981, "lng": 23.9239889, "type": "HQ Office", "company": "TNT", "city": "Athens"},
        {"name": "Marousi", "code": "CFUA", "lat": 38.0449148, "lng": 23.8091209, "type": "Station", "company": "TNT", "city": "Marousi"},
        {"name": "Thessaloniki", "code": "SKGA", "lat": 40.5220, "lng": 22.9630, "type": "Air Gateway", "company": "TNT", "city": "Thessaloniki"},
        {"name": "Thessaloniki", "code": "SKGT8", "lat": 40.5579976, "lng": 22.9852482, "type": "Station", "company": "TNT", "city": "Thessaloniki"},
        {"name": "Heraklion", "code": "HERA", "lat": 35.3369922, "lng": 25.1202105, "type": "Station", "company": "TNT", "city": "Heraklion"},
        {"name": "Ioannina", "code": "IOAA", "lat": 39.67356, "lng": 20.84827, "type": "Customer Dock", "company": "TNT", "city": "Ioannina"},
        {"name": "Kalamata", "code": "JKHA", "lat": 37.03593, "lng": 22.11355, "type": "Customer Dock", "company": "TNT", "city": "Kalamata"},
        {"name": "Larissa", "code": "JSIA", "lat": 39.6357794410498, "lng": 22.41957, "type": "Customer Dock", "company": "TNT", "city": "Larissa"}
      ]
    },
    "BG": {
      "employee": 185,
      "enduser_machine": 174,
      "network_devices": 92,
      "ap": 30,
      "router": 7,
      "switch": 27,
      "firewall": null,
      "uds": null,
      "location": 9,
      "locationCoordinates": [
        {"name": "Sofia HQ", "code": "SOFT8", "lat": 42.6756915, "lng": 23.400031, "type": "HQ Office", "company": "TNT", "city": "Sofia"},
        {"name": "Sofia Call Center", "code": "SOFT7", "lat": 42.6781334, "lng": 23.4002062, "type": "Call Center", "company": "TNT", "city": "Sofia"},
        {"name": "Sofia", "code": "Sofia", "lat": 42.67049, "lng": 23.35104, "type": "Station", "company": "TNT", "city": "Sofia"},
        {"name": "Plovdiv", "code": "PDVT8", "lat": 42.14418, "lng": 24.70585, "type": "Station", "company": "TNT", "city": "Plovdiv"},
        {"name": "Varna", "code": "VART8", "lat": 43.20494, "lng": 27.87287, "type": "Station", "company": "TNT", "city": "Varna"},
        {"name": "Burgas", "code": "BG3T8", "lat": 42.5126, "lng": 27.44523, "type": "Station", "company": "TNT", "city": "Burgas"},
        {"name": "Pleven", "code": "PL2T8", "lat": 43.42123, "lng": 24.57951, "type": "Station", "company": "TNT", "city": "Pleven"},
        {"name": "Sevlievo", "code": "SV3T8", "lat": 43.01907, "lng": 25.09986, "type": "Station", "company": "TNT", "city": "Sevlievo"},
        {"name": "Ruse", "code": "HKVA", "lat": 43.87025, "lng": 26.01197, "type": "Station", "company": "TNT", "city": "Ruse"}
      ]
    },
    "SI": {
      "employee": 87,
      "enduser_machine": 93,
      "network_devices": 34,
      "ap": 14,
      "router": 3,
      "switch": 9,
      "firewall": null,
      "uds": null,
      "location": 3,
      "locationCoordinates": [
        {"name": "Ljubljana", "code": "LJ1BO", "lat": 46.0661, "lng": 14.5541, "type": "HQ Office", "company": "FedEx", "city": "Ljubljana"},
        {"name": "Ljubljana Airport", "code": "LJRA", "lat": 46.2301, "lng": 14.4541, "type": "Ramp", "company": "FedEx", "city": "Ljubljana"},
        {"name": "Maribor", "code": "MSBA", "lat": 46.4911, "lng": 15.6581, "type": "Station", "company": "FedEx", "city": "Maribor"}
      ]
    },
    "CY": {
      "employee": 72,
      "enduser_machine": 48,
      "network_devices": 38,
      "ap": 10,
      "router": 6,
      "switch": 8,
      "firewall": null,
      "uds": null,
      "location": 5,
      "locationCoordinates": [
        {"name": "Nicosia HQ", "code": "NICT8", "lat": 35.1301, "lng": 33.3601, "type": "HQ Office", "company": "FedEx", "city": "Nicosia"},
        {"name": "Larnaca Airport", "code": "LCAT7", "lat": 34.872078, "lng": 33.6137342, "type": "Air Gateway", "company": "FedEx", "city": "Larnaca"},
        {"name": "LarnacaStation", "code": "LCAT8", "lat": 34.92869, "lng": 33.58386, "type": "Station", "company": "FedEx", "city": "Larnaca"},
        {"name": "Larnaca Old Airport", "code": "LCAT9", "lat": 34.90144, "lng": 33.58522, "type": "Station", "company": "FedEx", "city": "Larnaca"},
        {"name": "LimassolStation", "code": "AKTA", "lat": 34.92869, "lng": 33.58386, "type": "Station", "company": "FedEx", "city": "Limassol"}
      ]
    },
	"CZ": {
      "employee": 555,
      "enduser_machine": null,
      "network_devices": null,
      "ap": null,
      "router": null,
      "switch": null,
      "firewall": null,
      "uds": null,
      "location": null,
      "locationCoordinates": [
        {"name": "Syrovice", "code": "BRQA", "lat": 49.07425, "lng": 16.55606, "type": "RampStation", "company": "Integrated", "city": "Syrovice"},
        {"name": "Brno", "code": "BRQBO", "lat": 49.16602, "lng": 16.68149, "type": "HQ Office", "company": "Integrated", "city": "Brno"},
        {"name": "Hluboká nad Vltavou", "code": "CBQA", "lat": 49.0357124, "lng": 14.4178348, "type": "Customer Dock", "company": "Integrated", "city": "Hluboká nad Vltavou"},
        {"name": "Zlín", "code": "GTWA", "lat": 49.2424233, "lng": 17.6512675, "type": "Customer Dock", "company": "Integrated", "city": "Zlín"},
        {"name": "Jihlava", "code": "JIHA", "lat": 49.3923878, "lng": 15.5999111, "type": "Customer Dock", "company": "Integrated", "city": "Jihlava"},
        {"name": "Město Touškov", "code": "MKAA", "lat": 49.72277, "lng": 13.28082, "type": "Station", "company": "Integrated", "city": "Město Touškov"},
        {"name": "Lovosice", "code": "NCH", "lat": 50.5083981, "lng": 14.0478478, "type": "Customer Dock", "company": "Integrated", "city": "Lovosice"},
        {"name": "Olomouc", "code": "OLOA", "lat": 49.5824797, "lng": 17.2766967, "type": "Customer Dock", "company": "Integrated", "city": "Olomouc"},
        {"name": "Ostrava", "code": "OSRA", "lat": 49.82028, "lng": 18.17497, "type": "Station", "company": "Integrated", "city": "Ostrava"},
        {"name": "Hradec Králové", "code": "PEDA", "lat": 50.16903, "lng": 15.79622, "type": "Station", "company": "Integrated", "city": "Hradec Králové"},
        {"name": "Chrášťany", "code": "PRGA", "lat": 50.05129, "lng": 14.25849, "type": "Clearance Center", "company": "Integrated", "city": "Chrášťany"},
        {"name": "Praha 5 - Radlice", "code": "PRGBO", "lat": 50.05602, "lng": 14.37833, "type": "HQ Office", "company": "Integrated", "city": "Praha 5 - Radlice"},
        {"name": "Praha 6 - Ruzyně", "code": "PRGRT", "lat": 50.11177, "lng": 14.27265, "type": "Ramp", "company": "Integrated", "city": "Praha 6 - Ruzyně"},
        {"name": "Zdiby", "code": "VF", "lat": 50.1773486, "lng": 14.4461984, "type": "Customer Dock", "company": "Integrated", "city": "Zdiby"},
        {"name": "Liberec", "code": "XLBA", "lat": 50.7456791, "lng": 15.0301561, "type": "Customer Dock", "company": "Integrated", "city": "Liberec"}
      ]
    },
    "HU": {
      "employee": 258,
      "enduser_machine": null,
      "network_devices": null,
      "ap": null,
      "router": null,
      "switch": null,
      "firewall": null,
      "uds": null,
      "location": 15,
      "locationCoordinates": [
        {"name": "Budapest", "code": "ANDA", "lat": 47.3855031, "lng": 18.9613898, "type": "Customer Dock", "company": "Integrated", "city": "Budapest"},
        {"name": "Budapest", "code": "BUDA", "lat": 47.4411809, "lng": 19.2199933, "type": "HQ Office", "company": "Integrated", "city": "Budapest"},
        {"name": "Debrecen", "code": "DEBA", "lat": 47.5034094, "lng": 21.5849161, "type": "Customer Dock", "company": "Integrated", "city": "Debrecen"},
        {"name": "Zalaegerszeg", "code": "FLEX", "lat": 46.8028951, "lng": 16.8476641, "type": "Customer Dock", "company": "Integrated", "city": "Zalaegerszeg"},
        {"name": "Gyál", "code": "FLEXGS", "lat": 47.3666537, "lng": 19.2084129, "type": "Customer Dock", "company": "Integrated", "city": "Gyál"},
        {"name": "Gyönygyös", "code": "HVZA", "lat": null, "lng": null, "type": "Customer Dock", "company": "Integrated", "city": "Gyönygyös"},
        {"name": "Szirmabesenyő", "code": "MCQA", "lat": 47.157562, "lng": 18.5380559, "type": "Customer Dock", "company": "Integrated", "city": "Szirmabesenyő"},
        {"name": "Győr", "code": "QGYA", "lat": 47.6744442, "lng": 17.6657009, "type": "Customer Dock", "company": "Integrated", "city": "Győr"},
        {"name": "Pécs", "code": "QPJA", "lat": 46.0660185, "lng": 18.1851472, "type": "Customer Dock", "company": "Integrated", "city": "Pécs"},
        {"name": "Szeged", "code": "QZDA", "lat": 46.2604223, "lng": 20.1299994, "type": "Customer Dock", "company": "Integrated", "city": "Szeged"},
        {"name": "Biatorbágy", "code": "XXJA", "lat": 47.4744451, "lng": 18.8608979, "type": "Station", "company": "Integrated", "city": "Biatorbágy"},
        {"name": "Székesfehérvár", "code": "XXQA", "lat": 47.187497, "lng": 18.4472912, "type": "Customer Dock", "company": "Integrated", "city": "Székesfehérvár"},
        {"name": "Nyíregyháza", "code": "YIRA", "lat": 47.9502273, "lng": 21.6996109, "type": "Customer Dock", "company": "Integrated", "city": "Nyíregyháza"},
        {"name": "Körmend", "code": "ZBXA", "lat": null, "lng": null, "type": "Customer Dock", "company": "Integrated", "city": "Körmend"},
        {"name": "Kecskemét", "code": "ZLGC", "lat": 46.9084736, "lng": 19.696215, "type": "Customer Dock", "company": "Integrated", "city": "Kecskemét"}
      ]
    },
    "RO": {
      "employee": 385,
      "enduser_machine": null,
      "network_devices": null,
      "ap": null,
      "router": null,
      "switch": null,
      "firewall": null,
      "uds": null,
      "location": 16,
      "locationCoordinates": [
        {"name": "BUZAU", "code": "BBUA", "lat": 45.1667, "lng": 26.8167, "type": "Station", "company": "Integrated", "city": "BUZAU"},
        {"name": "SARATA", "code": "BCMA", "lat": 46.5032687, "lng": 26.9166027, "type": "Station", "company": "Integrated", "city": "SARATA"},
        {"name": "BUCHAREST", "code": "BUHBC", "lat": 44.5671, "lng": 26.1001, "type": "HQ Office", "company": "Integrated", "city": "BUCHAREST"},
        {"name": "Apahida", "code": "CLJA", "lat": 46.7993697, "lng": 23.7370698, "type": "Ramp", "company": "Integrated", "city": "Apahida"},
        {"name": "CONSTANTA", "code": "CNDA", "lat": 44.1773, "lng": 28.6529, "type": "Station", "company": "Integrated", "city": "CONSTANTA"},
        {"name": "CARCEA", "code": "CRAA", "lat": 44.2667, "lng": 23.9, "type": "Station", "company": "Integrated", "city": "CARCEA"},
        {"name": "IASI", "code": "IASA", "lat": 47.1598, "lng": 27.5872, "type": "Station", "company": "Integrated", "city": "IASI"},
        {"name": "BRASOV", "code": "LGJA", "lat": 45.6667, "lng": 25.6167, "type": "Station", "company": "Integrated", "city": "BRASOV"},
        {"name": "Santion", "code": "OMRA", "lat": 47.1141373, "lng": 21.8058658, "type": "Station", "company": "Integrated", "city": "Santion"},
        {"name": "OTOPENI", "code": "OTPA", "lat": 44.5497, "lng": 26.0738, "type": "Air Gateway", "company": "Integrated", "city": "OTOPENI"},
        {"name": "PLOIESTI", "code": "QPLA", "lat": 44.9333, "lng": 26.0333, "type": "Station", "company": "Integrated", "city": "PLOIESTI"},
        {"name": "PITESTI", "code": "QSVA", "lat": 44.8585, "lng": 24.8706, "type": "Station", "company": "Integrated", "city": "PITESTI"},
        {"name": "SIBIU", "code": "SBZA", "lat": 45.7901644, "lng": 24.0727026, "type": "Ramp", "company": "Integrated", "city": "SIBIU"},
        {"name": "BRAILA", "code": "TCEA", "lat": 45.271, "lng": 27.9743, "type": "Station", "company": "Integrated", "city": "BRAILA"},
        {"name": "TARGU MURES", "code": "TGMA", "lat": 46.5456, "lng": 24.5625, "type": "Station", "company": "Integrated", "city": "TARGU MURES"},
        {"name": "GHIRODA", "code": "TSRA", "lat": 45.7667, "lng": 21.3, "type": "Air Gateway", "company": "Integrated", "city": "GHIRODA"}
      ]
    },
	"AT": {
      "employee": 381,
      "enduser_machine": null,
      "network_devices": null,
      "ap": null,
      "router": null,
      "switch": null,
      "firewall": null,
      "uds": null,
      "location": 8,
      "locationCoordinates": [
        {"name": "WOERGL", "code": "ANTA", "lat": 47.48858, "lng": 12.10482, "type": "Station", "company": "FedEx", "city": "WOERGL"},
        {"name": "KALSDORF BEI GRAZ", "code": "GRZA", "lat": 46.96745, "lng": 15.45632, "type": "Station", "company": "FedEx", "city": "KALSDORF BEI GRAZ"},
        {"name": "KLAGENFURT", "code": "KLUT8", "lat": 46.61043, "lng": 14.33228, "type": "Customer Dock", "company": "TNT", "city": "KLAGENFURT"},
        {"name": "ST FLORIAN", "code": "LNZT8", "lat": 48.22646, "lng": 14.39383, "type": "Station", "company": "TNT", "city": "ST FLORIAN"},
        {"name": "HORBRANZ", "code": "LTAT8", "lat": 47.5514, "lng": 9.7416, "type": "Station", "company": "FedEx", "city": "HORBRANZ"},
        {"name": "ST LORENZEN IM MUERZTAL", "code": "QDIA", "lat": 47.47132, "lng": 15.35936, "type": "Customer Dock", "company": "FedEx", "city": "ST LORENZEN IM MUERZTAL"},
        {"name": "BERGHEIM", "code": "SZGA", "lat": 47.8626627, "lng": 13.0035971, "type": "Station", "company": "Integrated", "city": "BERGHEIM"},
        {"name": "WIEN", "code": "VIERT", "lat": 48.12332, "lng": 16.55477, "type": "Ramp", "company": "FedEx", "city": "WIEN"}
      ]
    },
    "CH": {
      "employee": 977,
      "enduser_machine": null,
      "network_devices": null,
      "ap": null,
      "router": null,
      "switch": null,
      "firewall": null,
      "uds": null,
      "location": 14,
      "locationCoordinates": [
        {"name": "KERZERS", "code": "BRNA", "lat": 46.96652, "lng": 7.1826, "type": "Station", "company": "Integrated", "city": "KERZERS"},
        {"name": "ARLESHEIM", "code": "BSLA", "lat": 47.59248, "lng": 7.52395, "type": "Ramp", "company": "Integrated", "city": "ARLESHEIM"},
        {"name": "BASEL", "code": "BSLIP", "lat": 47.58923, "lng": 7.53512, "type": "Ramp", "company": "Integrated", "city": "BASEL"},
        {"name": "MEYRIN", "code": "GVAA", "lat": 46.22903, "lng": 6.07144, "type": "Station", "company": "Integrated", "city": "MEYRIN"},
        {"name": "MONTAGNOLA", "code": "LUGA", "lat": 45.97637, "lng": 8.92488, "type": "Station", "company": "Integrated", "city": "MONTAGNOLA"},
        {"name": "OBERRUETI", "code": "QLJA", "lat": 47.16475, "lng": 8.40191, "type": "Station", "company": "Integrated", "city": "OBERRUETI"},
        {"name": "BUSSIGNY-PRES-LAUSANNE", "code": "QLSA", "lat": 47.16475, "lng": 8.40191, "type": "Station", "company": "Integrated", "city": "BUSSIGNY-PRES-LAUSANNE"},
        {"name": "MUENCHWILEN", "code": "SMVA", "lat": 47.47887, "lng": 8.99249, "type": "Station", "company": "Integrated", "city": "MUENCHWILEN"},
        {"name": "GENEVA", "code": "ZAPA", "lat": 46.23672, "lng": 6.08933, "type": "Ramp", "company": "Integrated", "city": "GENEVA"},
        {"name": "OFTRINGEN", "code": "ZDAA", "lat": 47.39406, "lng": 8.06685, "type": "Ramp", "company": "Integrated", "city": "OFTRINGEN"},
        {"name": "BALERNA", "code": "ZDSA", "lat": 45.97637, "lng": 8.92488, "type": "Station", "company": "Integrated", "city": "BALERNA"},
        {"name": "CHUR", "code": "ZJZA", "lat": 46.8565085, "lng": 9.5050885, "type": "Station", "company": "Integrated", "city": "CHUR"},
        {"name": "Wangi", "code": "ZLIA", "lat": 47.4922, "lng": 8.9831, "type": "Station", "company": "Integrated", "city": "Wangi"},
        {"name": "DAELLIKON", "code": "ZRHA", "lat": 47.4462905, "lng": 8.4355721, "type": "Station", "company": "Integrated", "city": "DAELLIKON"}
      ]
    },
    "SK": {
      "employee": 149,
      "enduser_machine": null,
      "network_devices": null,
      "ap": null,
      "router": null,
      "switch": null,
      "firewall": null,
      "uds": null,
      "location": 9,
      "locationCoordinates": [
        {"name": "BRATISLAVA", "code": "BTSA", "lat": 48.1987911, "lng": 17.1944782, "type": "HQ Office", "company": "Integrated", "city": "Bratislava"},
{"name": "GAN", "code": "GAN", "lat": 48.2296443, "lng": 17.7266637, "type": "Customer Dock", "company": "CNIC Slovakia Logistics I s.r.o.", "city": "Gan"},
{"name": "BYTCA", "code": "ILZA", "lat": 49.2231506, "lng": 18.5641124, "type": "Clearance Center", "company": "Integrated", "city": "Bytča"},
{"name": "KOSICE", "code": "KSCA", "lat": 48.7167, "lng": 21.25, "type": "Clearance Center", "company": "Integrated", "city": "Košice"},
{"name": "TRENCIN", "code": "PZYA", "lat": 48.8919, "lng": 18.0367, "type": "Clearance Center", "company": "Integrated", "city": "Trenčín"},
{"name": "RUZOMBEROK", "code": "RUZA", "lat": 49.0504, "lng": 18.8812, "type": "Station", "company": "Integrated", "city": "Ružomberok"},
{"name": "SLIAC", "code": "SLDA", "lat": 48.6119, "lng": 19.1436, "type": "Station", "company": "Integrated", "city": "Sliač"},
{"name": "POPRAD", "code": "TATA", "lat": 50.1485, "lng": 12.8506, "type": "Station", "company": "Integrated", "city": "Poprad"},
{"name": "NITRA - LUZIANKY", "code": "XNIA", "lat": 48.3220705, "lng": 18.1142405, "type": "Station", "company": "Integrated", "city": "Nitra - Lužianky"}
      ]
    },
	"ES": {
      "employee": 1410,
      "enduser_machine": null,
      "network_devices": null,
      "ap": null,
      "router": null,
      "switch": null,
      "firewall": null,
      "uds": null,
      "location": 64,
      "locationCoordinates": [
        {"name": "ALBACETE", "code": "ABCT8", "lat": 39.01908505953402, "lng": -1.8751222872323736, "type": "Customer Dock", "company": "FedEx", "city": "ALBACETE"},
        {"name": "MALAGA", "code": "AGPA", "lat": 36.70306085971828, "lng": -4.47496011145215, "type": "Station", "company": "FedEx", "city": "MALAGA"},
        {"name": "LOS BARRIOS", "code": "AL1T8", "lat": 36.184818932327936, "lng": -5.43575878359808, "type": "Customer Dock", "company": "FedEx", "city": "LOS BARRIOS"},
        {"name": "ELCHE", "code": "ALCA", "lat": 38.29597816201963, "lng": -0.6258853677222903, "type": "Station", "company": "FedEx", "city": "ELCHE"},
        {"name": "Andorra", "code": "ALVA", "lat": 42.5010595, "lng": 1.5196562, "type": "Station", "company": "Integrated", "city": "Andorra"},
        {"name": "AVILA", "code": "AV3T8", "lat": 40.6638139832749, "lng": -4.67760588420507, "type": "Customer Dock", "company": "FedEx", "city": "AVILA"},
        {"name": "EL PRAT DE LLOBREGAT", "code": "BCNA", "lat": 41.29768350389319, "lng": 2.05987856456867, "type": "Road Hub", "company": "FedEx", "city": "EL PRAT DE LLOBREGAT"},
        {"name": "TRAPAGARAN", "code": "BIOA", "lat": 43.29430495996078, "lng": -3.009935302022732, "type": "Station", "company": "FedEx", "city": "TRAPAGARAN"},
        {"name": "MERIDA", "code": "BJZT8", "lat": 38.9254025738483, "lng": -6.389819025356549, "type": "Customer Dock", "company": "FedEx", "city": "MERIDA"},
        {"name": "VILLIMAR", "code": "BR6T8", "lat": 42.3637512698317, "lng": -3.6453350847417445, "type": "Customer Dock", "company": "FedEx", "city": "VILLIMAR"},
        {"name": "CADIZ", "code": "CACBO", "lat": 36.50064694019633, "lng": -6.2657341309096415, "type": "Station", "company": "FedEx", "city": "CADIZ"},
        {"name": "BAILEN", "code": "CBAA", "lat": 38.088554849440065, "lng": -3.7860030690868904, "type": "Station", "company": "FedEx", "city": "BAILEN"},
        {"name": "CACERES", "code": "CC4T8", "lat": 39.48468757821629, "lng": -6.415118851046789, "type": "Customer Dock", "company": "FedEx", "city": "CACERES"},
        {"name": "CASTELLON", "code": "CDTT8", "lat": 39.97033462422291, "lng": -0.07121381535732321, "type": "Station", "company": "FedEx", "city": "CASTELLON"},
        {"name": "MANZANARES", "code": "CJIT8", "lat": 39.009562795321656, "lng": -3.3574283274444823, "type": "Customer Dock", "company": "FedEx", "city": "MANZANARES"},
        {"name": "CUENCA", "code": "CU5T8", "lat": 40.05522115654241, "lng": -2.127372160392722, "type": "Customer Dock", "company": "FedEx", "city": "CUENCA"},
        {"name": "ANDOAIN", "code": "EASA", "lat": 43.22913564902521, "lng": -2.0031242325056184, "type": "Station", "company": "FedEx", "city": "ANDOAIN"},
        {"name": "GIBRALTAR", "code": "GIBA", "lat": 36.15382, "lng": -5.34756, "type": "Station", "company": "FedEx", "city": "GIBRALTAR"},
        {"name": "ATARFE", "code": "GRXT8", "lat": 37.205827676303734, "lng": -3.6589961476789736, "type": "Station", "company": "FedEx", "city": "ATARFE"},
        {"name": "SAN JUAN DEL PUERTO", "code": "HL7T8", "lat": 37.30794312290863, "lng": -6.873305957281458, "type": "Customer Dock", "company": "FedEx", "city": "SAN JUAN DEL PUERTO"},
        {"name": "CUARTE", "code": "HU6T8", "lat": 42.145487333031234, "lng": -0.39729193054472917, "type": "Customer Dock", "company": "FedEx", "city": "CUARTE"},
        {"name": "SAN RAFAEL", "code": "IB4T8", "lat": 38.94106431451728, "lng": 1.4149533722073824, "type": "Customer Dock", "company": "FedEx", "city": "SAN RAFAEL"},
        {"name": "IGUALADA", "code": "IG3T8", "lat": 41.59278423042031, "lng": 1.6273198716122328, "type": "Customer Dock", "company": "FedEx", "city": "IGUALADA"},
        {"name": "CEUTA", "code": "JCUT8", "lat": 35.89153731119804, "lng": -5.3167226535442635, "type": "Customer Dock", "company": "FedEx", "city": "CEUTA"},
        {"name": "A CORUNA", "code": "LCGT8", "lat": 43.33171171974001, "lng": -8.429274090074001, "type": "Customer Dock", "company": "Integrated", "city": "A CORUNA"},
        {"name": "VIATOR", "code": "LEIT8", "lat": 36.88035283106796, "lng": -2.4144137696953845, "type": "Customer Dock", "company": "FedEx", "city": "VIATOR"},
        {"name": "AIGUAVIVA", "code": "LENA", "lat": 41.9408899958849, "lng": 2.7819663823469596, "type": "Station", "company": "FedEx", "city": "AIGUAVIVA"},
        {"name": "MARIALBA DE LA RIBERA", "code": "LENT8", "lat": 42.55730475683579, "lng": -5.549758112419996, "type": "Customer Dock", "company": "FedEx", "city": "MARIALBA DE LA RIBERA"},
        {"name": "LOGRONO", "code": "LG4T8", "lat": 42.472071744138496, "lng": -2.4209319087833387, "type": "Customer Dock", "company": "FedEx", "city": "LOGRONO"},
        {"name": "ARINAGA", "code": "LP7T8", "lat": 27.858687817717662, "lng": -15.418385092636415, "type": "Customer Dock", "company": "FedEx", "city": "ARINAGA"},
        {"name": "LUGO", "code": "LU6T8", "lat": 43.04480543299899, "lng": -7.559138958830367, "type": "Customer Dock", "company": "FedEx", "city": "LUGO"},
        {"name": "COSLADA", "code": "MADA", "lat": 40.431160345050756, "lng": -3.5463972765170753, "type": "Air Hub", "company": "FedEx", "city": "COSLADA"},
		{"name": "MADRID", "code": "MADRT", "lat": 40.452968170782995, "lng": -3.5714120516341246, "type": "Station", "company": "FedEx", "city": "MADRID"},
        {"name": "MADRID", "code": "MCVA", "lat": 40.45313623133903, "lng": -3.5715426504499423, "type": "Station", "company": "FedEx", "city": "MADRID"},
        {"name": "MAHON", "code": "MH4T8", "lat": 39.883496339109215, "lng": 4.238219968948976, "type": "Customer Dock", "company": "FedEx", "city": "MAHON"},
        {"name": "ALCANTARILLA", "code": "MJVT8", "lat": 37.9601372748996, "lng": -1.2061193903770027, "type": "Station", "company": "FedEx", "city": "ALCANTARILLA"},
        {"name": "CORDOBA", "code": "ODBT8", "lat": 37.90184472540861, "lng": -4.717177128931361, "type": "Customer Dock", "company": "FedEx", "city": "CORDOBA"},
        {"name": "SAN CIBRAO DE VINAS", "code": "OU6T8", "lat": 42.28005542798203, "lng": -7.8239450041961724, "type": "Customer Dock", "company": "FedEx", "city": "SAN CIBRAO DE VINAS"},
        {"name": "OVIEDO", "code": "OVDT8", "lat": 43.37860817913461, "lng": -5.806659088410719, "type": "Station", "company": "FedEx", "city": "OVIEDO"},
        {"name": "VENTA DE BANOS", "code": "PL5T8", "lat": 41.937336218203505, "lng": -4.478520576249407, "type": "Customer Dock", "company": "FedEx", "city": "VENTA DE BANOS"},
        {"name": "PALMA DE MALLORCA", "code": "PMIT8", "lat": 39.6000398366043, "lng": 2.6626951250797313, "type": "Station", "company": "FedEx", "city": "PALMA DE MALLORCA"},
        {"name": "IMARCOAIN", "code": "PNAT8", "lat": 42.726320122005156, "lng": -1.614838947942677, "type": "Station", "company": "FedEx", "city": "IMARCOAIN"},
        {"name": "POZOBLANCO", "code": "PZ3T8", "lat": 38.381895317187734, "lng": -4.842236728212059, "type": "Customer Dock", "company": "FedEx", "city": "POZOBLANCO"},
        {"name": "CONSTANTI", "code": "QGNT8", "lat": 41.161527123238706, "lng": 1.1692148935185203, "type": "Station", "company": "FedEx", "city": "CONSTANTI"},
        {"name": "LLEIDA", "code": "QLQT8", "lat": 41.60981798259664, "lng": 0.6830995191538208, "type": "Station", "company": "FedEx", "city": "LLEIDA"},
        {"name": "SAN FERNANDO DE HENARES", "code": "ROZA", "lat": 40.44355271856196, "lng": -3.50616129600984, "type": "Station", "company": "FedEx", "city": "SAN FERNANDO DE HENARES"},
        {"name": "SANTIAGO DE COMPOSTELA", "code": "SC7T8", "lat": 42.913980326156384, "lng": -8.507391099547648, "type": "Customer Dock", "company": "FedEx", "city": "SANTIAGO DE COMPOSTELA"},
        {"name": "SEGOVIA", "code": "SG7T8", "lat": 40.91262100842509, "lng": -4.109569324362257, "type": "Customer Dock", "company": "FedEx", "city": "SEGOVIA"},
        {"name": "VILLARES DE LA REINA", "code": "SL7T8", "lat": 40.990213592479094, "lng": -5.6467078136081135, "type": "Customer Dock", "company": "FedEx", "city": "VILLARES DE LA REINA"},
        {"name": "SORIA", "code": "SR3T8", "lat": 41.7694782678645, "lng": -2.4884461951951975, "type": "Customer Dock", "company": "FedEx", "city": "SORIA"},
        {"name": "SEVILLA", "code": "SVQA", "lat": 37.38428538881, "lng": -5.936114591718084, "type": "Station", "company": "FedEx", "city": "SEVILLA"},
        {"name": "HOYA FRIA", "code": "TCIT8", "lat": 28.442604592462942, "lng": -16.284240662291737, "type": "Customer Dock", "company": "FedEx", "city": "HOYA FRIA"},
        {"name": "NOVES", "code": "TL2T8", "lat": 40.05386531539204, "lng": -4.252338397051862, "type": "Customer Dock", "company": "FedEx", "city": "NOVES"},
        {"name": "TERUEL", "code": "TR4T8", "lat": 40.37127307586606, "lng": -1.1595519585333298, "type": "Customer Dock", "company": "FedEx", "city": "TERUEL"},
        {"name": "MOS", "code": "VGOA", "lat": 42.164255547917236, "lng": -8.640678931753039, "type": "Station", "company": "FedEx", "city": "MOS"},
        {"name": "VITORIA", "code": "VITA", "lat": 42.84896211812008, "lng": -2.7268434997193345, "type": "Station", "company": "FedEx", "city": "VITORIA"},
        {"name": "VITORIA", "code": "VITT7", "lat": 42.88221068765051, "lng": -2.732720764296525, "type": "Station", "company": "FedEx", "city": "VITORIA"},
        {"name": "RIBA-ROJA DE TURIA", "code": "VLCA", "lat": 39.48167027550112, "lng": -0.5544973012404526, "type": "Station", "company": "FedEx", "city": "RIBA-ROJA DE TURIA"},
        {"name": "MANISES", "code": "VLCRT", "lat": 39.494010181412975, "lng": -0.4816867466603091, "type": "Station", "company": "FedEx", "city": "MANISES"},
        {"name": "PICANYA", "code": "VLCT8", "lat": 39.44030758309911, "lng": -0.42727594201040636, "type": "Station", "company": "FedEx", "city": "PICANYA"},
        {"name": "EL PUERTO DE SANTA MARIA", "code": "XRYT8", "lat": 36.61189849461601, "lng": -6.208384712349014, "type": "Station", "company": "FedEx", "city": "EL PUERTO DE SANTA MARIA"},
        {"name": "HERAS", "code": "YJLT8", "lat": 43.395533825448815, "lng": -3.7978258224171646, "type": "Station", "company": "FedEx", "city": "HERAS"},
        {"name": "SAN JUAN MOZARRIFAR", "code": "ZAZA", "lat": 41.71975831266739, "lng": -0.8534408869979322, "type": "Station", "company": "FedEx", "city": "SAN JUAN MOZARRIFAR"},
        {"name": "BARCELONA", "code": "ZRCA", "lat": 41.34052390079797, "lng": 2.1415880617174774, "type": "Station", "company": "FedEx", "city": "BARCELONA"}
      ]
    },
	"PT": {
      "employee": 1380,
      "enduser_machine": null,
      "network_devices": null,
      "ap": null,
      "router": null,
      "switch": null,
      "firewall": null,
      "uds": null,
      "location": 8,
      "locationCoordinates": [
        {"name": "EVORA", "code": "AVRA", "lat": 38.56988, "lng": -7.94603, "type": "Station", "company": "FedEx", "city": "EVORA"},
        {"name": "MARINHA GRANDE", "code": "BGCA", "lat": 39.76859, "lng": -9.02418, "type": "Station", "company": "FedEx", "city": "MARINHA GRANDE"},
        {"name": "TAVEIRO", "code": "CBPT8", "lat": 40.19766, "lng": -8.49007, "type": "Station", "company": "FedEx", "city": "TAVEIRO"},
        {"name": "FARO", "code": "FAOT8", "lat": 37.0154, "lng": -7.9351, "type": "Station", "company": "FedEx", "city": "FARO"},
        {"name": "LISBON", "code": "LISCE", "lat": 38.77237, "lng": -9.0977, "type": "Call Center", "company": "FedEx", "city": "LISBON"},
        {"name": "LISBON", "code": "LISRT", "lat": 38.74892, "lng": -9.14122, "type": "Clearance Center", "company": "FedEx", "city": "LISBON"},
        {"name": "LECA DO BAILO", "code": "OPOGC", "lat": 41.2124, "lng": -8.64932, "type": "Call Center", "company": "FedEx", "city": "LECA DO BAILO"},
        {"name": "MAIA", "code": "OPORT", "lat": 41.2361, "lng": -8.63109, "type": "Ramp", "company": "FedEx", "city": "MAIA"}
      ]
    }
  }
}
     